[
  {
    "id": 101,
    "name": "RGA Techpark",
    "category": "IT Company",
    "lng": 77.70405994963784,
    "lat": 12.901107749245918,
    "distanceLabel": "9.3 km",
    "timeLabel": "22 min",
    "rating": 4.4,
    "featured": true,
    "image": "/RGA.webp"
  },
  {
    "id": 102,
    "name": "Wipro - Kodathi",
    "category": "IT Company",
    "lng": 77.71338094946654,
    "lat": 12.898516804161673,
    "distanceLabel": "7.9 km",
    "timeLabel": "19 mins",
    "rating": 4.3,
    "featured": true,
    "image": "/wipro.webp"
  },
  {
    "id": 103,
    "name": "Cessna Business Park",
    "category": "IT Company",
    "lng": 77.69328282549846,
    "lat": 12.936783327535188,
    "distanceLabel": "13.5 km",
    "timeLabel": "25 min",
    "rating": 4.5,
    "image": "/cessna.webp"
  },
  {
    "id": 104,
    "name": "Infosys",
    "category": "IT Company",
    "lng": 77.66386888815293,
    "lat": 12.849812954159967,
    "distanceLabel": "13.2 km",
    "timeLabel": "30 min",
    "rating": 4.4,
    "image": "/infosys.webp"
  },
  {
    "id": 105,
    "name": "Greenwood High - Sarjapur",
    "category": "school",
    "lng": 77.74913851633781,
    "lat": 12.899850360547891,
    "distanceLabel": "5.0 km",
    "timeLabel": "10 min",
    "rating": 4.2,
    "image": "/greenwood.webp"
  },
  {
    "id": 106,
    "name": "Oakridge International School",
    "category": "school",
    "lng": 77.75181443474642,
    "lat": 12.88765464049887,
    "distanceLabel": "3.2 km",
    "timeLabel": "5 min",
    "rating": 4.6,
    "image": "/oakridge.webp"
  },
  {
    "id": 107,
    "name": "Azim Premji University",
    "category": "school",
    "lng": 77.77694822265036,
    "lat": 12.845398656039851,
    "distanceLabel": "6.3 km",
    "timeLabel": "8 min",
    "rating": 4.4,
    "image": "/aizm.webp"
  },
  {
    "id": 108,
    "name": "EuroKids PreSchool",
    "category": "school",
    "lng": 77.76662670097221,
    "lat": 12.871621643180948,
    "distanceLabel": "3.5 km",
    "timeLabel": "5 min",
    "rating": 4.6,
    "image": "/RGA.webp"
  },
  {
    "id": 109,
    "name": "Manipal Varthur Hospital",
    "category": "hospital",
    "lng": 77.74556989369599,
    "lat": 12.958435072750012,
    "distanceLabel": "12 km",
    "timeLabel": "20 min",
    "rating": 4.7,
    "image": "/manipal.webp"
  },
  {
    "id": 110,
    "name": "Natus Women and Children Hospital",
    "category": "hospital",
    "lng": 77.76662670097221,
    "lat": 12.871621643180948,
    "distanceLabel": "9.6 km",
    "timeLabel": "15 min",
    "rating": 4.6,
    "image": "/natus.webp"
  },
  {
    "id": 111,
    "name": "SPARSH Hospital Sarjapur Road",
    "category": "hospital",
    "lng": 77.70115885637762,
    "lat": 12.90577842521528,
    "distanceLabel": "8.7 km",
    "timeLabel": "15 min",
    "rating": 4.6,
    "image": "/sparsh.webp"
  },
  {
    "id": 112,
    "name": "Spandana Heart & Super Speciality Hospital",
    "category": "hospital",
    "lng": 77.76750524730079,
    "lat": 12.867508577317707,
    "distanceLabel": "3 km",
    "timeLabel": "7 min",
    "rating": 4.6,
    "image": "/spandana.webp"
  },
  {
    "id": 113,
    "name": "D-Mart Sarjapur",
    "category": "mall",
    "lng": 77.77846106174933,
    "lat": 12.861455809196624,
    "distanceLabel": "3.7 km",
    "timeLabel": "9 min",
    "rating": 4.3,
    "image": "/dmart.webp"
  },
  {
    "id": 114,
    "name": "Natura Walk",
    "category": "mall",
    "lng": 77.76608245483332,
    "lat": 12.87513247249971,
    "distanceLabel": "3.8 km",
    "timeLabel": "12 min",
    "rating": 4.5,
    "image": "/natura.webp"
  },
  {
    "id": 115,
    "name": "CURIOUSCITY Science Center",
    "category": "landmark",
    "lng": 77.74658305174466,
    "lat": 12.892135753124949,
    "distanceLabel": "5.7 km",
    "timeLabel": "12 min",
    "rating": 4.5,
    "image": "/curriouscity.webp"
  },
  {
    "id": 116,
    "name": "Kidztopiaa",
    "category": "mall",
    "lng": 77.74658305174466,
    "lat": 12.892135753124949,
    "distanceLabel": "5.7 km",
    "timeLabel": "12 min",
    "rating": 4.5,
    "image": "/kidztopia.webp"
  },
  {
    "id": 117,
    "name": "Proposed Sompura Gate Metro Station",
    "category": "bus_stop",
    "lng": 77.77186798277971,
    "lat": 12.862207199561654,
    "distanceLabel": "3.8 km",
    "timeLabel": "12 min",
    "rating": 4.2,
    "image": "/metro.webp"
  },
  {
    "id": 118,
    "name": "Bus Station, Dommasandra",
    "category": "bus_stop",
    "lng": 77.75372931322615,
    "lat": 12.879887231726464,
    "distanceLabel": "2.2 km",
    "timeLabel": "3 min",
    "rating": 5,
    "image": "/dmbus.webp"
  },
  {
    "id": 119,
    "name": "Bus Station, Sompura Gate",
    "category": "bus_stop",
    "lng": 77.77189302040267,
    "lat": 12.86242513817878,
    "distanceLabel": "2.3 km",
    "timeLabel": "4 min",
    "rating": 5,
    "image": "/sobbs.webp"
  },
  {
    "id": 120,
    "name": "Karmelaram Railway Station",
    "category": "bus_stop",
    "lng": 77.70602386412557,
    "lat": 12.907550285982408,
    "distanceLabel": "9.3 km",
    "timeLabel": "18 min",
    "rating": 3.6,
    "image": "/karmelaram.webp"
  }
]